[
    {
      "division_id": "Chattagram",
      "name": "Comilla",
      "bn_name": "কুমিল্লা",
      "lat": "23.4682747",
      "lon": "91.1788135",
      "url": "www.comilla.gov.bd"
    },
    {
      "division_id": "Chattagram",
      "name": "Feni",
      "bn_name": "ফেনী",
      "lat": "23.023231",
      "lon": "91.3840844",
      "url": "www.feni.gov.bd"
    },
    {
      "division_id": "Chattagram",
      "name": "Brahmanbaria",
      "bn_name": "ব্রাহ্মণবাড়িয়া",
      "lat": "23.9570904",
      "lon": "91.1119286",
      "url": "www.brahmanbaria.gov.bd"
    },
    {
      "division_id": "Chattagram",
      "name": "Rangamati",
      "bn_name": "রাঙ্গামাটি",
      "lat": "22.65561018",
      "lon": "92.17541121",
      "url": "www.rangamati.gov.bd"
    },
    {
      "division_id": "Chattagram",
      "name": "Noakhali",
      "bn_name": "নোয়াখালী",
      "lat": "22.869563",
      "lon": "91.099398",
      "url": "www.noakhali.gov.bd"
    },
    {
      "division_id": "Chattagram",
      "name": "Chandpur",
      "bn_name": "চাঁদপুর",
      "lat": "23.2332585",
      "lon": "90.6712912",
      "url": "www.chandpur.gov.bd"
    },
    {
      "division_id": "Chattagram",
      "name": "Lakshmipur",
      "bn_name": "লক্ষ্মীপুর",
      "lat": "22.942477",
      "lon": "90.841184",
      "url": "www.lakshmipur.gov.bd"
    },
    {
      "division_id": "Chattagram",
      "name": "Chattogram",
      "bn_name": "চট্টগ্রাম",
      "lat": "22.335109",
      "lon": "91.834073",
      "url": "www.chittagong.gov.bd"
    },
    {
      "division_id": "Chattagram",
      "name": "Coxsbazar",
      "bn_name": "কক্সবাজার",
      "lat": "21.44315751",
      "lon": "91.97381741",
      "url": "www.coxsbazar.gov.bd"
    },
    {
      "division_id": "Chattagram",
      "name": "Khagrachhari",
      "bn_name": "খাগড়াছড়ি",
      "lat": "23.119285",
      "lon": "91.984663",
      "url": "www.khagrachhari.gov.bd"
    },
    {
      "division_id": "Chattagram",
      "name": "Bandarban",
      "bn_name": "বান্দরবান",
      "lat": "22.1953275",
      "lon": "92.2183773",
      "url": "www.bandarban.gov.bd"
    },
    {
      "division_id": "Rajshahi",
      "name": "Sirajganj",
      "bn_name": "সিরাজগঞ্জ",
      "lat": "24.4533978",
      "lon": "89.7006815",
      "url": "www.sirajganj.gov.bd"
    },
    {
      "division_id": "Rajshahi",
      "name": "Pabna",
      "bn_name": "পাবনা",
      "lat": "23.998524",
      "lon": "89.233645",
      "url": "www.pabna.gov.bd"
    },
    {
      "division_id": "Rajshahi",
      "name": "Bogura",
      "bn_name": "বগুড়া",
      "lat": "24.8465228",
      "lon": "89.377755",
      "url": "www.bogra.gov.bd"
    },
    {
      "division_id": "Rajshahi",
      "name": "Rajshahi",
      "bn_name": "রাজশাহী",
      "lat": "24.37230298",
      "lon": "88.56307623",
      "url": "www.rajshahi.gov.bd"
    },
    {
      "division_id": "Rajshahi",
      "name": "Natore",
      "bn_name": "নাটোর",
      "lat": "24.420556",
      "lon": "89.000282",
      "url": "www.natore.gov.bd"
    },
    {
      "division_id": "Rajshahi",
      "name": "Joypurhat",
      "bn_name": "জয়পুরহাট",
      "lat": "25.09636876",
      "lon": "89.04004280",
      "url": "www.joypurhat.gov.bd"
    },
    {
      "division_id": "Rajshahi",
      "name": "Chapainawabganj",
      "bn_name": "চাঁপাইনবাবগঞ্জ",
      "lat": "24.5965034",
      "lon": "88.2775122",
      "url": "www.chapainawabganj.gov.bd"
    },
    {
      "division_id": "Rajshahi",
      "name": "Naogaon",
      "bn_name": "নওগাঁ",
      "lat": "24.83256191",
      "lon": "88.92485205",
      "url": "www.naogaon.gov.bd"
    },
    {
      "division_id": "Khulna",
      "name": "Jashore",
      "bn_name": "যশোর",
      "lat": "23.16643",
      "lon": "89.2081126",
      "url": "www.jessore.gov.bd"
    },
    {
      "division_id": "Khulna",
      "name": "Satkhira",
      "bn_name": "সাতক্ষীরা",
      "lat": null,
      "lon": null,
      "url": "www.satkhira.gov.bd"
    },
    {
      "division_id": "Khulna",
      "name": "Meherpur",
      "bn_name": "মেহেরপুর",
      "lat": "23.762213",
      "lon": "88.631821",
      "url": "www.meherpur.gov.bd"
    },
    {
      "division_id": "Khulna",
      "name": "Narail",
      "bn_name": "নড়াইল",
      "lat": "23.172534",
      "lon": "89.512672",
      "url": "www.narail.gov.bd"
    },
    {
      "division_id": "Khulna",
      "name": "Chuadanga",
      "bn_name": "চুয়াডাঙ্গা",
      "lat": "23.6401961",
      "lon": "88.841841",
      "url": "www.chuadanga.gov.bd"
    },
    {
      "division_id": "Khulna",
      "name": "Kushtia",
      "bn_name": "কুষ্টিয়া",
      "lat": "23.901258",
      "lon": "89.120482",
      "url": "www.kushtia.gov.bd"
    },
    {
      "division_id": "Khulna",
      "name": "Magura",
      "bn_name": "মাগুরা",
      "lat": "23.487337",
      "lon": "89.419956",
      "url": "www.magura.gov.bd"
    },
    {
      "division_id": "Khulna",
      "name": "Khulna",
      "bn_name": "খুলনা",
      "lat": "22.815774",
      "lon": "89.568679",
      "url": "www.khulna.gov.bd"
    },
    {
      "division_id": "Khulna",
      "name": "Bagerhat",
      "bn_name": "বাগেরহাট",
      "lat": "22.651568",
      "lon": "89.785938",
      "url": "www.bagerhat.gov.bd"
    },
    {
      "division_id": "Khulna",
      "name": "Jhenaidah",
      "bn_name": "ঝিনাইদহ",
      "lat": "23.5448176",
      "lon": "89.1539213",
      "url": "www.jhenaidah.gov.bd"
    },
    {
      "division_id": "Barisal",
      "name": "Jhalakathi",
      "bn_name": "ঝালকাঠি",
      "lat": null,
      "lon": null,
      "url": "www.jhalakathi.gov.bd"
    },
    {
      "division_id": "Barisal",
      "name": "Patuakhali",
      "bn_name": "পটুয়াখালী",
      "lat": "22.3596316",
      "lon": "90.3298712",
      "url": "www.patuakhali.gov.bd"
    },
    {
      "division_id": "Barisal",
      "name": "Pirojpur",
      "bn_name": "পিরোজপুর",
      "lat": null,
      "lon": null,
      "url": "www.pirojpur.gov.bd"
    },
    {
      "division_id": "Barisal",
      "name": "Barisal",
      "bn_name": "বরিশাল",
      "lat": null,
      "lon": null,
      "url": "www.barisal.gov.bd"
    },
    {
      "division_id": "Barisal",
      "name": "Bhola",
      "bn_name": "ভোলা",
      "lat": "22.685923",
      "lon": "90.648179",
      "url": "www.bhola.gov.bd"
    },
    {
      "division_id": "Barisal",
      "name": "Barguna",
      "bn_name": "বরগুনা",
      "lat": null,
      "lon": null,
      "url": "www.barguna.gov.bd"
    },
    {
      "division_id": "Sylhet",
      "name": "Sylhet",
      "bn_name": "সিলেট",
      "lat": "24.8897956",
      "lon": "91.8697894",
      "url": "www.sylhet.gov.bd"
    },
    {
      "division_id": "Sylhet",
      "name": "Moulvibazar",
      "bn_name": "মৌলভীবাজার",
      "lat": "24.482934",
      "lon": "91.777417",
      "url": "www.moulvibazar.gov.bd"
    },
    {
      "division_id": "Sylhet",
      "name": "Habiganj",
      "bn_name": "হবিগঞ্জ",
      "lat": "24.374945",
      "lon": "91.41553",
      "url": "www.habiganj.gov.bd"
    },
    {
      "division_id": "Sylhet",
      "name": "Sunamganj",
      "bn_name": "সুনামগঞ্জ",
      "lat": "25.0658042",
      "lon": "91.3950115",
      "url": "www.sunamganj.gov.bd"
    },
    {
      "division_id": "Dhaka",
      "name": "Narsingdi",
      "bn_name": "নরসিংদী",
      "lat": "23.932233",
      "lon": "90.71541",
      "url": "www.narsingdi.gov.bd"
    },
    {
      "division_id": "Dhaka",
      "name": "Gazipur",
      "bn_name": "গাজীপুর",
      "lat": "24.0022858",
      "lon": "90.4264283",
      "url": "www.gazipur.gov.bd"
    },
    {
      "division_id": "Dhaka",
      "name": "Shariatpur",
      "bn_name": "শরীয়তপুর",
      "lat": null,
      "lon": null,
      "url": "www.shariatpur.gov.bd"
    },
    {
      "division_id": "Dhaka",
      "name": "Narayanganj",
      "bn_name": "নারায়ণগঞ্জ",
      "lat": "23.63366",
      "lon": "90.496482",
      "url": "www.narayanganj.gov.bd"
    },
    {
      "division_id": "Dhaka",
      "name": "Tangail",
      "bn_name": "টাঙ্গাইল",
      "lat": "24.26361358",
      "lon": "89.91794786",
      "url": "www.tangail.gov.bd"
    },
    {
      "division_id": "Dhaka",
      "name": "Kishoreganj",
      "bn_name": "কিশোরগঞ্জ",
      "lat": "24.444937",
      "lon": "90.776575",
      "url": "www.kishoreganj.gov.bd"
    },
    {
      "division_id": "Dhaka",
      "name": "Manikganj",
      "bn_name": "মানিকগঞ্জ",
      "lat": null,
      "lon": null,
      "url": "www.manikganj.gov.bd"
    },
    {
      "division_id": "Dhaka",
      "name": "Dhaka",
      "bn_name": "ঢাকা",
      "lat": "23.7115253",
      "lon": "90.4111451",
      "url": "www.dhaka.gov.bd"
    },
    {
      "division_id": "Dhaka",
      "name": "Munshiganj",
      "bn_name": "মুন্সিগঞ্জ",
      "lat": null,
      "lon": null,
      "url": "www.munshiganj.gov.bd"
    },
    {
      "division_id": "Dhaka",
      "name": "Rajbari",
      "bn_name": "রাজবাড়ী",
      "lat": "23.7574305",
      "lon": "89.6444665",
      "url": "www.rajbari.gov.bd"
    },
    {
      "division_id": "Dhaka",
      "name": "Madaripur",
      "bn_name": "মাদারীপুর",
      "lat": "23.164102",
      "lon": "90.1896805",
      "url": "www.madaripur.gov.bd"
    },
    {
      "division_id": "Dhaka",
      "name": "Gopalganj",
      "bn_name": "গোপালগঞ্জ",
      "lat": "23.0050857",
      "lon": "89.8266059",
      "url": "www.gopalganj.gov.bd"
    },
    {
      "division_id": "Dhaka",
      "name": "Faridpur",
      "bn_name": "ফরিদপুর",
      "lat": "23.6070822",
      "lon": "89.8429406",
      "url": "www.faridpur.gov.bd"
    },
    {
      "division_id": "Rangpur",
      "name": "Panchagarh",
      "bn_name": "পঞ্চগড়",
      "lat": "26.3411",
      "lon": "88.5541606",
      "url": "www.panchagarh.gov.bd"
    },
    {
      "division_id": "Rangpur",
      "name": "Dinajpur",
      "bn_name": "দিনাজপুর",
      "lat": "25.6217061",
      "lon": "88.6354504",
      "url": "www.dinajpur.gov.bd"
    },
    {
      "division_id": "Rangpur",
      "name": "Lalmonirhat",
      "bn_name": "লালমনিরহাট",
      "lat": null,
      "lon": null,
      "url": "www.lalmonirhat.gov.bd"
    },
    {
      "division_id": "Rangpur",
      "name": "Nilphamari",
      "bn_name": "নীলফামারী",
      "lat": "25.931794",
      "lon": "88.856006",
      "url": "www.nilphamari.gov.bd"
    },
    {
      "division_id": "Rangpur",
      "name": "Gaibandha",
      "bn_name": "গাইবান্ধা",
      "lat": "25.328751",
      "lon": "89.528088",
      "url": "www.gaibandha.gov.bd"
    },
    {
      "division_id": "Rangpur",
      "name": "Thakurgaon",
      "bn_name": "ঠাকুরগাঁও",
      "lat": "26.0336945",
      "lon": "88.4616834",
      "url": "www.thakurgaon.gov.bd"
    },
    {
      "division_id": "Rangpur",
      "name": "Rangpur",
      "bn_name": "রংপুর",
      "lat": "25.7558096",
      "lon": "89.244462",
      "url": "www.rangpur.gov.bd"
    },
    {
      "division_id": "Rangpur",
      "name": "Kurigram",
      "bn_name": "কুড়িগ্রাম",
      "lat": "25.805445",
      "lon": "89.636174",
      "url": "www.kurigram.gov.bd"
    },
    {
      "division_id": "Mymensingh",
      "name": "Sherpur",
      "bn_name": "শেরপুর",
      "lat": "25.0204933",
      "lon": "90.0152966",
      "url": "www.sherpur.gov.bd"
    },
    {
      "division_id": "Mymensingh",
      "name": "Mymensingh",
      "bn_name": "ময়মনসিংহ",
      "lat": "24.7465670",
      "lon": "90.4072093",
      "url": "www.mymensingh.gov.bd"
    },
    {
      "division_id": "Mymensingh",
      "name": "Jamalpur",
      "bn_name": "জামালপুর",
      "lat": "24.937533",
      "lon": "89.937775",
      "url": "www.jamalpur.gov.bd"
    },
    {
      "division_id": "Mymensingh",
      "name": "Netrokona",
      "bn_name": "নেত্রকোণা",
      "lat": "24.870955",
      "lon": "90.727887",
      "url": "www.netrokona.gov.bd"
    }
  ]